,City,Cloudiness,Country,Date,Humidity,Lat,Lng,Max Temp,Wind Speed
0,Ust-Maya,32,RU,1547308413,62,60.42,134.54,-34.17,2.71
1,Punta Arenas,40,CL,1547305200,57,-53.16,-70.91,50.0,39.15
2,San Cristobal,75,EC,1547305200,59,-0.39,-78.55,64.4,3.36
3,Ushuaia,75,AR,1547305200,81,-54.81,-68.31,48.2,34.45
4,Nemuro,12,JP,1547308415,100,43.32,145.57,26.94,22.06
5,Tonder,40,DK,1547306640,93,54.93,8.87,42.8,21.92
6,Kapaa,20,US,1547304960,87,22.08,-159.32,66.92,8.05
7,Gboko,8,NG,1547308416,17,7.32,9.0,99.03,10.42
8,Rikitea,88,PF,1547308266,99,-23.12,-134.97,79.28,14.45
9,Dikson,44,RU,1547308227,100,73.51,80.55,-18.42,30.33
10,Touros,75,BR,1547305200,52,-5.2,-35.46,91.4,9.17
11,Port Alfred,0,ZA,1547308417,75,-33.59,26.89,71.85,6.06
12,Severo-Kurilsk,68,RU,1547308270,99,50.68,156.12,31.98,17.92
13,Norman Wells,20,CA,1547305200,65,65.28,-126.83,-36.41,2.24
14,Gurmatkal,0,IN,1547308418,59,16.87,77.4,69.56,4.94
15,Vaini,0,IN,1547308283,74,15.34,74.49,69.83,1.14
16,Sao Felix do Xingu,20,BR,1547308418,79,-6.64,-51.99,83.24,2.59
17,Butaritari,100,KI,1547308225,100,3.07,172.79,83.64,10.98
18,Leningradskiy,8,RU,1547308418,100,69.38,178.42,-17.97,8.52
19,Sao Bento do Sul,40,BR,1547305200,74,-26.25,-49.38,86.0,6.93
20,Mataura,64,NZ,1547308254,92,-46.19,168.86,45.39,2.71
21,Izhma,88,RU,1547308419,75,65.01,53.91,17.94,9.86
22,Hilo,90,US,1547305800,87,19.71,-155.08,66.92,3.36
23,Lima,0,PE,1547305200,88,-12.06,-77.04,73.4,11.41
24,Avarua,75,CK,1547305200,94,-21.21,-159.78,75.2,3.36
25,Igarka,0,RU,1547308420,0,67.47,86.57,-42.18,13.78
26,Mackay,40,CA,1547305200,92,53.65,-115.58,19.4,4.7
27,Soyo,75,AO,1547305200,74,-6.13,12.37,84.2,8.05
28,Kruisfontein,0,ZA,1547308421,81,-34.0,24.73,67.8,13.11
29,Srandakan,80,ID,1547308421,100,-7.94,110.25,75.14,3.27
30,Praia da Vitoria,40,PT,1547305200,72,38.73,-27.07,62.6,23.4
31,Nanchong,24,CN,1547308422,82,30.8,106.08,39.23,2.37
32,Brae,92,GB,1547306400,87,60.4,-1.35,44.6,16.11
33,Castro,90,CL,1547305200,87,-42.48,-73.76,51.8,9.17
34,Hermanus,0,ZA,1547308255,46,-34.42,19.24,69.69,11.88
35,Copperas Cove,1,US,1547307300,66,31.12,-97.9,50.0,14.99
36,Jumla,88,NP,1547308423,96,29.28,82.18,22.94,1.59
37,Nara,75,JP,1547307000,87,34.68,135.8,42.8,3.36
38,Albany,75,US,1547306280,40,42.65,-73.75,19.04,8.05
39,Shimoda,75,JP,1547306040,81,34.7,138.93,48.2,8.05
40,Esperance,20,TT,1547305200,58,10.24,-61.45,84.2,16.11
41,Hobart,20,AU,1547305200,76,-42.88,147.33,51.8,4.7
42,Quatre Cocos,40,MU,1547305200,74,-20.21,57.76,82.4,10.29
43,Calama,40,CL,1547305200,39,-22.46,-68.93,64.4,10.29
44,Nabire,80,ID,1547308427,99,-3.36,135.5,69.33,1.81
45,Sabang,92,PH,1547308309,100,13.72,123.58,75.27,9.75
46,Rock Hill,90,US,1547308500,47,34.92,-81.03,39.92,8.05
47,Kibondo,56,TZ,1547308427,96,-3.59,30.72,70.05,4.05
48,Manokwari,48,ID,1547308427,100,-0.87,134.08,78.15,5.39
49,La Rioja,0,AR,1547308286,86,-29.41,-66.86,74.96,4.16
50,Narok,0,KE,1547308428,38,-1.09,35.87,73.92,10.98
51,Hit,32,IQ,1547308428,76,33.64,42.83,46.74,5.5
52,Baruun-Urt,0,MN,1547308428,53,46.68,113.28,-6.72,3.38
53,Saint-Joseph,0,FR,1547307000,37,43.56,6.97,57.2,3.6
54,Cape Town,20,ZA,1547305200,49,-33.93,18.42,69.8,16.11
55,Sitka,80,US,1547308310,88,37.17,-99.65,31.8,18.59
56,East London,75,ZA,1547305200,64,-33.02,27.91,73.4,10.29
57,Arlit,80,NE,1547308333,48,18.74,7.39,72.89,6.29
58,Baiyin,0,CN,1547305200,51,36.55,104.13,12.2,6.71
59,Saint George,75,GR,1547306400,86,39.45,22.34,39.2,6.93
60,Mwanza,40,TZ,1547305200,54,-2.52,32.9,82.4,11.41
61,Bethel,90,US,1547304960,76,60.79,-161.76,-18.94,23.04
62,Vila Franca do Campo,75,PT,1547305200,77,37.72,-25.43,62.6,14.99
63,Carnarvon,0,ZA,1547308252,28,-30.97,22.13,79.46,14.56
64,Barrow,12,AR,1547308431,69,-38.31,-60.23,79.14,16.69
65,Sistranda,90,NO,1547306400,100,63.73,8.83,33.8,3.36
66,Ust-Kuyga,48,RU,1547308432,58,70.0,135.55,-33.0,3.04
67,Santa Cruz,40,US,1547307000,87,36.97,-122.03,51.8,3.36
68,Nuevo Progreso,1,US,1547307300,93,26.05,-97.95,64.4,4.61
69,New Norfolk,20,AU,1547307000,76,-42.78,147.06,53.6,6.93
70,Coromandel,92,NZ,1547307000,88,-36.76,175.5,66.2,3.36
71,Tiruchchendur,32,IN,1547308434,77,8.48,78.12,78.6,16.13
72,Rome,0,IT,1547306400,39,41.89,12.48,50.0,4.7
73,Dorado,40,PR,1547307900,69,18.46,-66.27,80.96,4.7
74,Jamestown,0,AU,1547308109,37,-33.21,138.6,69.83,11.77
75,Casino,0,AU,1547307240,93,-28.86,153.05,66.2,2.15
76,Ayan,92,TR,1547308438,99,40.67,33.6,33.87,2.59
77,Sorland,80,NO,1547308232,100,67.67,12.69,36.3,14.9
78,Karpogory,88,RU,1547308439,76,64.0,44.44,21.45,9.98
79,Tanete,32,ID,1547308439,97,-3.94,119.78,75.09,2.71
80,Leh,68,IN,1547308269,74,34.16,77.58,-3.3,1.81
81,Kutum,8,SD,1547308440,26,14.2,24.66,81.75,3.71
82,Ribeira Grande,20,PT,1547305200,67,38.52,-28.7,62.6,21.92
83,Saskylakh,0,RU,1547308229,0,71.97,114.09,-51.23,4.72
84,La Palma,12,CO,1547308441,64,5.36,-74.39,75.23,2.82
85,Sao Filipe,0,CV,1547308260,87,14.9,-24.5,74.91,8.63
86,Broken Hill,0,AU,1547305200,24,-31.97,141.45,82.4,20.8
87,Varhaug,75,NO,1547306400,87,58.61,5.65,44.6,14.99
88,Kirakira,92,SB,1547308441,100,-10.46,161.92,80.22,2.04
89,Solnechnyy,12,RU,1547308312,32,50.72,136.64,-22.02,1.7
90,Hailun,56,CN,1547308442,59,47.46,126.97,8.18,3.94
91,Fortuna,0,ES,1547307000,41,38.18,-1.13,57.2,5.82
92,Palu,64,ID,1547308442,92,-0.9,119.87,67.94,1.36
93,Atuona,92,PF,1547308443,100,-9.8,-139.03,80.81,15.79
94,Clyde River,20,CA,1547305200,66,70.47,-68.59,-29.21,6.93
95,Patacamaya,8,BO,1547308443,81,-17.23,-67.92,54.44,4.38
96,Kaitangata,8,NZ,1547308292,84,-46.28,169.85,47.82,5.5
97,La Peca,0,PE,1547308444,79,-5.61,-78.44,72.12,1.03
98,Juneau,90,US,1547304780,95,58.3,-134.42,33.08,3.04
99,Bouca,0,CF,1547308445,19,6.51,18.28,98.94,7.29
100,Yellowknife,20,CA,1547305200,77,62.45,-114.38,-2.21,9.17
101,Cam Ranh,20,VN,1547307000,74,11.92,109.15,78.8,8.05
102,Nikolskoye,0,RU,1547307000,92,59.7,30.79,21.2,8.95
103,Busselton,0,AU,1547308446,100,-33.64,115.35,66.9,19.37
104,Padang,0,ID,1547308447,100,-0.92,100.36,81.93,4.38
105,Nanortalik,92,GL,1547308447,92,60.14,-45.24,31.31,21.5
106,Nikko,88,JP,1547308447,90,36.75,139.62,28.47,2.59
107,Iqaluit,75,CA,1547305920,67,63.75,-68.52,-23.81,24.16
108,San Rafael,24,AR,1547308305,30,-34.61,-68.33,78.06,9.75
109,Cabo San Lucas,5,MX,1547304000,82,22.89,-109.91,64.4,5.82
110,Taksimo,0,RU,1547308449,37,56.36,114.84,-26.88,0.25
111,Mahebourg,40,MU,1547305200,74,-20.41,57.7,82.4,10.29
112,Chicama,0,PE,1547305200,78,-7.84,-79.15,77.0,11.41
113,Ouallam,32,NE,1547308450,15,14.32,2.08,91.79,10.65
114,Upernavik,24,GL,1547308278,100,72.79,-56.15,-5.33,16.24
115,Nizhniy Odes,80,RU,1547308450,76,63.64,54.86,17.49,9.75
116,Karera,0,IN,1547308450,80,25.46,78.13,56.24,4.72
117,Lebu,0,ET,1547308451,12,8.96,38.73,63.66,9.42
118,Moroni,0,US,1547308451,67,39.52,-111.59,9.08,2.15
119,Abengourou,32,CI,1547308451,63,6.73,-3.5,88.86,1.81
120,Sadao,20,TH,1547307000,94,6.63,100.42,77.0,2.24
121,Dawson Creek,1,CA,1547305200,92,55.76,-120.23,35.6,4.7
122,Kavaratti,0,IN,1547308374,100,10.57,72.64,81.89,7.85
123,Alofi,12,NU,1547305200,83,-19.06,-169.92,75.2,6.93
124,Pevek,0,RU,1547308392,80,69.7,170.27,-18.2,7.4
125,Bluff,0,AU,1547308258,71,-23.58,149.07,73.34,10.98
126,Watsa,0,CD,1547308452,41,3.04,29.53,88.01,5.06
127,Salinopolis,24,BR,1547308453,100,-0.61,-47.36,81.48,11.65
128,Faanui,92,PF,1547308287,100,-16.48,-151.75,81.84,21.83
129,College,0,US,1547307180,64,64.86,-147.8,-41.08,4.16
130,Guiratinga,68,BR,1547308453,84,-16.35,-53.76,80.22,2.59
131,Chokurdakh,80,RU,1547308285,66,70.62,147.9,-22.2,4.61
132,Narsaq,75,GL,1547304600,64,60.91,-46.05,33.8,4.72
133,Ostrovnoy,80,RU,1547308276,89,68.05,39.51,19.34,5.5
134,Brainerd,90,US,1547307360,85,46.36,-94.2,26.6,8.05
135,Geraldton,5,CA,1547305200,67,49.72,-86.95,-22.01,2.71
136,Katsuura,40,JP,1547305200,80,33.93,134.5,41.0,8.05
137,Qaanaaq,0,GL,1547308243,99,77.48,-69.36,-22.92,5.95
138,Genhe,68,CN,1547308456,71,50.78,121.52,-4.11,2.71
139,Ritchie,0,ZA,1547305200,7,-29.03,24.6,98.6,10.29
140,Tuatapere,12,NZ,1547308456,100,-46.13,167.69,52.19,6.17
141,Lompoc,20,US,1547306100,89,34.64,-120.46,51.98,4.7
142,Klaksvik,80,FO,1547306400,87,62.23,-6.59,42.8,18.34
143,Charters Towers,64,AU,1547308460,73,-20.07,146.27,73.56,7.18
144,Namibe,40,AO,1547305200,69,-15.19,12.15,78.8,11.41
145,Chunskiy,56,RU,1547308460,71,56.08,99.63,0.71,2.93
146,Ondarroa,75,ES,1547307000,87,43.32,-2.42,50.0,2.24
147,Liberal,90,US,1547307300,89,37.04,-100.92,33.98,17.22
148,Ponta do Sol,88,BR,1547308461,77,-20.63,-46.0,78.87,4.72
149,Bose,0,IT,1547306400,45,45.46,8.01,50.0,4.7
150,Bambous Virieux,40,MU,1547305200,74,-20.34,57.76,82.4,10.29
151,Yar-Sale,80,RU,1547308462,84,66.83,70.83,0.44,21.72
152,Kodiak,90,US,1547307480,92,39.95,-94.76,32.0,13.87
153,Nizhniy Tsasuchey,0,RU,1547308469,71,50.52,115.13,-3.35,9.64
154,Ucluelet,75,CA,1547305200,87,48.94,-125.55,48.2,9.17
155,Saint-Philippe,1,CA,1547307300,56,45.36,-73.48,7.88,5.82
156,Te Anau,8,NZ,1547308470,70,-45.41,167.72,42.56,4.5
157,Puerto Ayora,40,EC,1547305200,69,-0.74,-90.35,80.6,6.93
158,Nyurba,44,RU,1547308471,57,63.29,118.35,-11.85,6.73
159,Hasaki,75,JP,1547307000,93,35.73,140.83,41.0,5.82
160,Murgab,40,TM,1547305200,70,37.5,61.97,44.6,9.17
161,Hami,48,CN,1547308471,66,42.84,93.51,6.96,3.04
162,Port Hardy,90,CA,1547305200,76,50.7,-127.42,48.2,13.87
163,Baykit,24,RU,1547308472,45,61.68,96.39,-29.27,2.93
164,Georgetown,75,GY,1547305200,66,6.8,-58.16,84.2,13.87
165,Kaeo,0,NZ,1547308348,91,-35.1,173.78,56.51,2.93
166,Bubaque,12,GW,1547308473,82,11.28,-15.83,85.13,4.5
167,Funadhoo,92,MV,1547308430,100,6.15,73.27,82.38,10.65
168,Victoria,75,BN,1547307000,83,5.28,115.24,82.4,9.17
169,Itarema,92,BR,1547308474,100,-2.92,-39.92,77.84,5.17
170,Terra Santa,8,BR,1547308474,74,-2.1,-56.49,85.53,4.5
171,Wewak,80,PG,1547308397,94,-3.55,143.63,77.48,3.6
172,Tarazona,56,ES,1547307000,80,41.91,-1.72,50.0,25.28
173,Kununurra,12,AU,1547307000,100,-15.77,128.74,75.2,4.7
174,Port Blair,76,IN,1547308336,98,11.67,92.75,83.46,11.88
175,Vulcan,0,CA,1547308476,62,50.4,-113.26,17.13,2.82
176,Lindi,75,TZ,1547305200,83,-10.0,39.71,82.4,12.75
177,Dukat,0,RS,1547308478,77,42.44,22.31,21.68,1.81
178,Xuanhua,0,CN,1547308479,54,40.61,115.04,14.7,5.5
179,Ca Mau,88,VN,1547308411,81,9.18,105.15,80.54,14.0
180,Arraial do Cabo,20,BR,1547305200,70,-22.97,-42.02,89.6,23.04
181,Ruthin,75,GB,1547306400,76,53.11,-3.31,50.0,12.75
182,Kalaleh,0,IR,1547305200,26,37.38,55.49,57.2,16.11
183,Dubrovka,0,RU,1547307000,92,59.85,30.93,21.2,8.95
184,Singaraja,80,ID,1547308481,100,-8.11,115.08,72.98,1.14
185,Taltal,0,CL,1547308481,74,-25.41,-70.49,66.27,3.38
186,Sivaki,80,RU,1547308482,84,52.63,126.75,-5.82,2.59
187,Cidreira,88,BR,1547308264,90,-30.17,-50.22,76.49,12.66
188,Kenora,90,CA,1547307300,85,49.76,-94.48,19.4,4.7
189,Izumo,75,JP,1547305200,86,35.37,132.75,37.4,4.7
190,Hohhot,0,CN,1547305200,71,40.81,111.65,6.8,2.24
191,Pangnirtung,40,CA,1547305200,73,66.15,-65.72,-29.21,8.05
192,Rutana,80,BI,1547308483,100,-3.93,29.99,68.07,4.05
193,Kahului,90,US,1547304960,87,20.89,-156.47,69.98,2.48
194,Coquimbo,0,CL,1547305200,60,-29.95,-71.34,69.8,12.75
195,Kongolo,48,CD,1547308484,89,-5.39,27.0,75.36,2.93
196,Bereda,75,ES,1547307000,81,43.27,-7.54,50.0,6.93
197,Mar del Plata,20,AR,1547308484,37,-46.43,-67.52,63.53,11.77
198,Tevaitoa,92,PF,1547308485,100,-16.78,-151.5,80.18,22.5
199,Yar,88,RU,1547308485,85,58.24,52.11,13.49,9.64
200,Chuy,88,UY,1547308049,88,-33.69,-53.46,72.89,11.77
201,Fiche,0,ET,1547308486,10,9.77,38.74,63.26,8.75
202,Thompson,75,CA,1547305200,77,55.74,-97.86,1.4,6.93
203,Laguna,5,MX,1547306820,100,27.52,-110.01,55.4,1.25
204,Ust-Tsilma,80,RU,1547308487,71,65.44,52.15,17.49,9.19
205,Airai,0,TL,1547308487,88,-8.93,125.41,69.69,1.7
206,Sao Joao da Barra,40,BR,1547305200,52,-21.64,-41.05,87.8,16.11
207,Greymouth,0,NZ,1547308487,100,-42.45,171.21,55.34,1.36
208,Mount Isa,0,AU,1547307000,24,-20.73,139.49,93.2,13.87
209,Komatipoort,32,MZ,1547308488,44,-25.43,31.96,93.0,16.02
210,Banda Aceh,0,ID,1547308488,89,5.56,95.32,76.58,4.72
211,Chincha Alta,0,PE,1547305200,30,-13.42,-76.13,71.6,16.11
212,Buraydah,0,SA,1547305200,56,26.33,43.97,69.8,5.82
213,Waitara,0,NZ,1547308489,94,-39.0,174.24,66.54,11.43
214,Khirkiya,0,IN,1547308489,66,22.17,76.86,64.79,6.06
215,Srikakulam,0,IN,1547308490,100,18.29,83.89,75.27,10.98
216,Talnakh,0,RU,1547308491,0,69.49,88.39,-43.53,6.62
217,Tabou,44,CI,1547308491,100,4.42,-7.36,81.21,10.2
218,Kloulklubed,75,PW,1547304600,88,7.04,134.26,78.8,9.17
219,Eureka,1,US,1547307300,100,40.8,-124.16,50.0,10.29
220,Bandarbeyla,32,SO,1547308484,100,9.49,50.81,76.62,16.02
221,Tocopilla,0,CL,1547308492,83,-22.09,-70.2,68.16,5.28
222,Timmins,90,CA,1547305200,83,48.48,-81.33,-14.81,4.7
223,Oktyabrskiy,90,RU,1547307000,85,55.61,37.97,14.0,8.95
224,Candido Mendes,56,BR,1547308493,100,-1.45,-45.72,80.54,10.42
225,Penzance,75,GB,1547306400,87,50.12,-5.53,50.0,19.46
226,Boyolangu,88,ID,1547308494,100,-8.09,111.9,71.54,2.37
227,Alice Springs,76,AU,1547307000,25,-23.7,133.88,87.8,6.93
228,Golyshmanovo,48,RU,1547308494,73,56.4,68.37,0.89,14.23
229,Alexandria,90,US,1547306100,100,31.31,-92.44,59.18,3.36
230,Coihaique,40,CL,1547305200,50,-45.58,-72.07,53.6,10.29
231,Longyearbyen,20,NO,1547306400,55,78.22,15.63,6.8,21.92
232,Souillac,75,FR,1547305200,87,45.6,-0.6,44.6,8.05
233,Djambala,44,CG,1547308495,91,-2.55,14.76,78.15,8.52
234,Yerbogachen,24,RU,1547308496,68,61.28,108.01,-9.87,5.5
235,Inhambane,20,MZ,1547305200,79,-23.87,35.38,87.8,18.34
236,Tuy Hoa,88,VN,1547308496,96,13.08,109.3,73.83,10.54
237,Beringovskiy,32,RU,1547308496,97,63.05,179.32,-5.1,25.3
238,Sandwick,90,GB,1547304600,100,54.57,-2.89,42.8,25.28
239,Bure,0,NG,1547308497,20,10.52,10.33,92.46,9.31
240,Guerrero Negro,76,MX,1547308497,100,27.97,-114.04,45.53,2.15
241,Gizo,0,IL,1547306400,67,31.8,34.94,60.8,5.82
242,Okha,0,RU,1547308498,86,53.59,142.95,5.25,14.79
243,Ahipara,0,NZ,1547308498,100,-35.17,173.16,61.5,3.27
244,Burnie,0,AU,1547308499,98,-41.05,145.91,63.53,13.0
245,Lazaro Cardenas,5,MX,1547304000,75,28.39,-105.62,32.0,2.48
246,Tasiilaq,40,GL,1547304600,67,65.61,-37.64,19.4,13.87
247,Nuuk,75,GL,1547304600,79,64.17,-51.74,23.0,12.75
248,Marawi,56,PH,1547308500,99,8.0,124.29,68.52,2.26
249,Suntar,36,RU,1547308500,69,62.16,117.65,-9.69,6.17
250,Amazar,56,RU,1547308501,66,53.86,120.88,-10.59,2.48
251,Provideniya,0,RU,1547308501,100,64.42,-173.23,-9.6,14.23
252,Russell,0,AR,1547305200,54,-33.01,-68.8,78.8,6.93
253,Celestun,0,MX,1547308501,100,20.87,-90.4,70.46,13.44
254,Port Elizabeth,1,US,1547304960,45,39.31,-74.98,28.94,4.7
255,Bredasdorp,0,ZA,1547305200,36,-34.53,20.04,77.0,23.04
256,San Patricio,8,PY,1547308502,79,-26.98,-56.83,87.96,3.71
257,Diffa,0,NE,1547308502,22,13.32,12.61,90.53,8.41
258,Broome,75,GB,1547306400,81,52.47,1.45,48.38,19.46
259,Akdepe,75,TM,1547307000,92,42.05,59.39,35.6,16.11
260,Qazvin,0,IR,1547305200,51,36.28,50.01,35.6,9.17
261,San Vicente,0,SV,1547306460,48,13.64,-88.78,86.0,4.7
262,Tibiao,12,PH,1547308504,100,11.29,122.03,77.7,15.01
263,Novikovo,80,UA,1547308505,100,45.05,34.56,34.41,0.47
264,Gotsu,92,JP,1547308505,100,35.01,132.22,40.58,5.5
265,Kisangani,24,CD,1547308506,72,0.52,25.21,83.91,0.92
266,Tuktoyaktuk,90,CA,1547305200,75,69.44,-133.03,-13.01,6.93
267,Pozoblanco,0,ES,1547307000,26,38.38,-4.85,55.4,3.36
268,Talas,75,TR,1547306400,68,38.69,35.55,26.6,6.93
269,Samarai,0,PG,1547308507,100,-10.62,150.67,81.12,9.42
270,Roros,76,NO,1547306400,79,62.57,11.38,24.8,3.36
271,Pacific Grove,40,US,1547307000,87,36.62,-121.92,51.8,3.36
272,Mbuji-Mayi,56,CD,1547308507,57,-6.13,23.6,87.42,4.72
273,Kalianget,40,ID,1547307000,94,-7.35,109.91,77.0,1.7
274,Dunmore East,40,IE,1547305200,87,52.15,-6.99,50.0,18.34
275,Mut,88,TR,1547308508,92,36.64,33.44,36.44,2.04
276,Havre-Saint-Pierre,90,CA,1547305200,79,50.23,-63.6,21.2,9.17
277,Rio Gallegos,75,AR,1547305200,37,-51.62,-69.22,53.6,38.03
278,Pontes e Lacerda,44,BR,1547308509,98,-15.23,-59.33,82.88,4.16
279,Tonekabon,75,IR,1547305200,81,36.82,50.88,48.2,2.37
280,Kirsanov,56,RU,1547308509,84,52.65,42.73,12.14,8.97
281,Boa Vista,40,BR,1547305200,43,2.82,-60.67,89.6,14.99
282,Cayenne,75,GF,1547307000,62,4.94,-52.33,86.0,12.75
283,Garden City,40,US,1547306100,47,40.73,-73.63,26.96,4.16
284,Neuquen,0,AR,1547305200,22,-38.95,-68.06,75.2,5.82
285,Omboue,88,GA,1547308511,100,-1.57,9.26,78.33,8.19
286,Iroquois Falls,90,CA,1547305200,83,48.76,-80.69,-14.81,4.7
287,Zhezkazgan,76,KZ,1547308511,79,47.8,67.71,3.9,6.4
288,Cap Malheureux,40,MU,1547305200,74,-19.98,57.61,82.4,10.29
289,Qaqortoq,75,GL,1547304600,64,60.72,-46.03,33.8,2.15
290,Boditi,0,ET,1547308513,19,6.95,37.86,74.78,5.73
291,Pisco,0,PE,1547305200,30,-13.71,-76.2,71.6,16.11
292,Agde,0,FR,1547305200,100,43.31,3.47,55.4,21.92
293,Antofagasta,20,CL,1547305200,68,-23.65,-70.4,68.0,16.11
294,Port Lincoln,0,AU,1547308246,93,-34.72,135.86,64.34,14.0
295,Serrinha,56,BR,1547308514,52,-11.66,-39.0,87.33,7.18
296,Atar,0,MR,1547305200,10,20.52,-13.05,86.0,13.87
297,Ukiah,90,US,1547306280,92,39.15,-123.21,46.04,3.38
298,Dali,0,CN,1547308515,100,25.6,100.24,37.29,2.04
299,Kudahuvadhoo,68,MV,1547308515,100,2.67,72.89,80.49,8.19
300,Orlik,36,RU,1547308515,74,52.51,99.83,-4.47,3.6
301,Neiafu,75,TO,1547305200,78,-18.65,-173.98,78.8,11.41
302,Ambovombe,76,MG,1547308516,86,-25.18,46.09,81.21,2.93
303,Carupano,44,VE,1547308516,83,10.67,-63.26,79.14,11.77
304,Saldanha,0,PT,1547308519,65,41.42,-6.55,46.74,5.95
305,Martinsville,90,US,1547307000,58,36.69,-79.87,35.96,3.71
306,Kirkuk,12,IQ,1547308521,78,35.47,44.4,38.33,2.93
307,Kaseda,48,JP,1547308521,100,31.42,130.32,55.65,13.22
308,Aviles,75,ES,1547305200,87,43.55,-5.92,48.2,1.12
309,Huesca,0,ES,1547307000,53,42.14,-0.41,50.0,13.87
310,Isangel,24,VU,1547308313,100,-19.55,169.27,77.07,3.83
311,Vilyuysk,32,RU,1547308522,47,63.75,121.63,-15.68,6.73
312,Thohoyandou,32,ZA,1547308523,52,-22.97,30.46,90.08,5.5
313,Vallenar,0,CL,1547308523,71,-28.58,-70.76,67.58,2.93
314,Mumbwa,80,ZM,1547308524,85,-14.99,27.06,76.98,4.83
315,Khatanga,48,RU,1547308524,45,71.98,102.47,-28.1,12.88
316,Abulug,0,PH,1547308524,95,18.45,121.45,74.01,14.0
317,Blackfoot,40,US,1547307660,90,43.19,-112.35,24.08,9.17
318,Griffith,48,AU,1547305200,25,-34.29,146.06,89.6,6.93
319,Lagoa,0,PT,1547305200,44,37.14,-8.45,59.0,12.75
320,Sant Julia de Loria,0,AD,1547307000,42,42.46,1.49,48.2,3.36
321,Praia,40,BR,1547305200,45,-20.25,-43.81,87.8,6.93
322,Uhlove,92,UA,1547308547,100,44.82,33.6,38.1,8.19
323,Torbay,75,CA,1547305200,74,47.66,-52.73,33.8,14.99
324,Srednekolymsk,88,RU,1547308547,63,67.46,153.71,-21.57,3.04
325,Aykhal,32,RU,1547308547,42,65.95,111.51,-27.92,4.72
326,Kenai,90,US,1547304960,75,60.55,-151.26,3.92,12.75
327,Chico,5,US,1547304900,86,39.73,-121.84,42.98,3.15
328,Aklavik,75,CA,1547305200,68,68.22,-135.01,-18.41,13.87
329,Rindal,68,NO,1547308549,93,63.05,9.21,27.26,2.26
330,Saint-Georges,48,CA,1547308549,55,46.12,-70.67,2.91,9.19
331,Puerto Princesa,20,PH,1547305200,74,9.74,118.73,80.6,11.41
332,Ballarat,0,AU,1547308550,86,-37.56,143.86,53.94,10.31
333,Koungheul,92,SN,1547308550,34,13.98,-14.8,88.01,7.4
334,Lorengau,68,PG,1547308550,97,-2.02,147.27,84.09,13.78
335,Chapulhuacan,36,MX,1547308551,77,21.17,-98.9,61.05,1.92
336,Vanimo,92,PG,1547308551,100,-2.67,141.3,83.06,16.8
337,Tigre,75,AR,1547305200,61,-34.42,-58.58,80.6,3.36
338,Turbana,0,CO,1547305200,70,10.27,-75.44,84.2,3.36
339,Georgiyevka,64,RU,1547308552,84,52.25,40.45,12.27,10.09
340,Cherskiy,44,RU,1547308552,51,68.75,161.3,-17.34,2.59
341,Lerwick,75,GB,1547306400,81,60.15,-1.15,44.6,20.8
342,Ancud,90,CL,1547305200,87,-41.87,-73.83,51.8,9.17
343,Betafo,92,MG,1547308554,90,-19.84,46.86,64.47,3.71
344,Tessalit,44,ML,1547308430,18,20.2,1.01,72.03,12.21
345,Anilao,68,PH,1547308554,88,10.98,122.75,75.23,8.3
346,Tiznit,0,MA,1547308292,73,29.7,-9.73,65.82,3.71
347,Moose Factory,90,CA,1547305200,76,51.26,-80.61,-5.81,8.05
348,Sur,12,OM,1547308555,99,22.57,59.53,72.93,14.12
349,Alyangula,64,AU,1547305200,78,-13.85,136.42,82.4,12.21
350,Evanston,90,US,1547307300,78,42.04,-87.69,33.08,8.05
351,Kasese,48,UG,1547308276,65,0.17,30.09,80.13,3.6
352,Mayumba,92,GA,1547308556,96,-3.44,10.65,80.94,10.65
353,Baillif,56,GP,1547307000,61,16.02,-61.75,82.4,14.99
354,Kankan,0,GN,1547308557,18,10.38,-9.3,96.38,12.33
355,San Quintin,24,PH,1547308557,85,17.54,120.52,66.45,2.59
356,Dustlik,68,UZ,1547308561,78,40.53,68.03,37.83,3.94
357,Kedougou,0,SN,1547305200,26,12.56,-12.19,95.0,6.93
358,Bilibino,0,RU,1547308561,43,68.06,166.44,-28.14,2.26
359,Wanning,75,AT,1547306400,97,48.64,13.53,37.4,17.22
360,Honningsvag,76,NO,1547308562,100,70.98,25.97,33.42,23.51
361,Sopelana,75,ES,1547307000,87,43.38,-2.98,50.0,2.24
362,Haines Junction,44,CA,1547308567,34,60.75,-137.51,-25.85,2.15
363,Sibu,75,MY,1547305200,100,2.29,111.83,77.0,2.24
364,Safonovo,88,RU,1547308567,88,55.11,33.24,20.33,11.65
365,Mount Gambier,0,AU,1547305200,87,-37.83,140.78,51.8,8.05
366,Huilong,92,CN,1547308568,95,28.89,110.18,33.87,2.37
367,Shizunai,0,JP,1547308568,100,42.33,142.37,7.05,6.73
368,Ankang,8,CN,1547308568,70,32.73,108.99,16.64,1.92
369,Yumen,12,CN,1547308569,56,40.29,97.04,-0.69,3.38
370,Avera,90,US,1547307300,60,33.19,-82.53,46.4,11.41
371,Palmares do Sul,88,BR,1547308569,90,-30.26,-50.51,76.49,12.66
372,Codrington,0,AU,1547307240,93,-28.95,153.24,66.2,2.15
373,Awjilah,56,LY,1547308570,54,29.14,21.3,58.8,25.97
374,Norfolk,90,US,1547307300,58,36.85,-76.29,39.92,6.51
375,Viedma,80,AR,1547308570,33,-40.81,-62.99,78.42,6.73
376,Ambilobe,80,MG,1547308571,100,-13.19,49.05,72.53,2.15
377,Eshowe,56,ZA,1547308571,66,-28.89,31.46,75.0,4.72
378,Maceio,40,BR,1547305200,55,-9.67,-35.74,86.0,12.75
379,Dedovichi,64,RU,1547308572,94,57.55,29.95,26.67,7.96
380,Borba,0,PT,1547305200,43,38.81,-7.46,55.4,6.93
381,Schalksmuhle,90,DE,1547306400,93,51.23,7.53,44.6,12.75
382,Mozarlandia,12,BR,1547308573,87,-14.74,-50.57,87.15,4.83
383,Pochutla,90,MX,1547304300,78,15.74,-96.47,77.0,2.48
384,Sorong,56,ID,1547308574,100,-0.86,131.25,83.73,7.85
385,Tabuk,48,PH,1547308335,93,17.41,121.44,64.02,1.92
386,Vardo,90,US,1547307300,60,39.62,-77.74,32.0,4.7
387,Mangai,24,CD,1547308578,71,-4.07,19.59,85.26,3.15
388,Makakilo City,1,US,1547305020,89,21.35,-158.09,68.0,3.36
389,Thabazimbi,24,ZA,1547308579,33,-24.59,27.41,92.73,3.49
390,Hofn,92,IS,1547308500,100,64.25,-15.21,37.34,6.17
391,Moron,68,VE,1547308579,80,10.49,-68.2,73.16,3.38
392,Miram Shah,0,PK,1547308601,66,33.01,70.07,33.42,1.48
393,Acajutla,0,SV,1547304600,57,13.59,-89.83,75.2,4.27
394,Gawler,0,AU,1547307000,67,-34.6,138.75,62.6,17.22
395,Aksarka,76,RU,1547308602,74,66.56,67.8,0.21,17.47
396,Razole,0,IN,1547308602,100,16.48,81.84,76.76,12.33
397,Rawlins,90,US,1547307300,100,41.79,-107.24,17.96,6.93
398,Dudinka,0,RU,1547308624,78,69.41,86.18,-37.95,17.47
399,Litovko,24,RU,1547308625,50,49.24,135.18,-16.98,2.04
400,Portland,20,US,1547306220,88,45.52,-122.67,37.94,5.82
401,Ust-Ilimsk,44,RU,1547308625,69,57.96,102.73,-1.95,3.27
402,Lamar,90,US,1547304780,84,38.09,-102.62,35.06,6.93
403,Tezu,0,IN,1547308626,64,27.93,96.16,48.18,1.81
404,Shuya,92,RU,1547308627,85,56.84,41.38,13.49,10.98
405,Papara,40,BR,1547305200,83,-3.98,-38.73,80.6,2.24
406,Vestmanna,92,FO,1547306400,87,62.16,-7.17,42.8,18.34
407,Kant,40,KG,1547307000,92,42.89,74.85,23.0,4.47
408,Carutapera,80,BR,1547308484,95,-1.2,-46.02,80.49,5.95
409,Banes,20,CU,1547304600,57,20.96,-75.72,80.6,13.87
410,Esmeraldas,40,BR,1547305200,45,-19.76,-44.31,87.8,6.93
411,Ailigandi,88,PA,1547308630,78,9.23,-78.02,78.87,6.73
412,Andapa,92,MG,1547308630,95,-14.66,49.65,72.3,2.37
413,Krasne,90,UA,1547307000,80,49.91,24.61,30.2,8.95
414,Nelson Bay,0,AU,1547307000,88,-32.72,152.14,69.8,3.36
415,Wakkanai,80,JP,1547308631,100,45.41,141.67,29.37,15.9
416,Tiksi,48,RU,1547308631,37,71.64,128.87,-24.77,11.43
417,Catalina,20,CO,1547305200,74,8.86,-75.38,84.2,5.28
418,Cockburn Town,20,TC,1547308609,100,21.46,-71.14,78.38,18.25
419,Gao,24,ML,1547308406,18,16.28,-0.04,84.41,8.86
420,Nisia Floresta,40,BR,1547305200,52,-6.09,-35.21,91.4,13.87
421,Abnub,0,EG,1547305200,36,27.27,31.15,64.4,10.29
422,Berezovyy,0,RU,1547308633,52,51.67,135.7,-18.69,0.58
423,Micheweni,12,TZ,1547308634,99,-4.97,39.83,83.24,20.27
424,Novoshakhtinsk,40,RU,1547307000,79,47.76,39.94,28.4,17.9
425,Victoria,75,BN,1547307000,83,5.28,115.24,82.4,9.17
426,Lasa,20,CY,1547307000,67,34.92,32.53,57.2,12.75
427,Palmer,0,AU,1547307000,67,-34.85,139.16,62.6,17.22
428,Sibolga,88,ID,1547308635,100,1.74,98.78,70.14,2.37
429,Tautira,88,PF,1547307000,83,-17.73,-149.15,78.8,14.99
430,Los Llanos de Aridane,40,ES,1547307000,56,28.66,-17.92,68.0,3.36
431,Pemba,75,MZ,1547305200,69,-12.97,40.52,82.4,11.41
432,Shache,32,CN,1547308640,70,38.42,77.24,17.04,2.93
433,Deputatskiy,44,RU,1547308388,67,69.3,139.9,-36.47,2.71
434,Caloundra,20,AU,1547307000,83,-26.8,153.14,71.6,5.82
435,Zwedru,36,LR,1547308641,78,6.07,-8.13,85.71,4.72
436,Cessnock,0,AU,1547307000,88,-32.83,151.35,69.8,3.36
437,Manta,0,RO,1547308642,85,45.1,24.1,20.73,3.71
438,Adre,8,TD,1547308644,14,13.47,22.2,92.73,5.73
439,Tirumala,20,IN,1547307000,64,13.68,79.35,75.2,3.36
440,Wagar,88,US,1547308645,69,31.44,-87.99,52.01,6.06
441,Alta Floresta,20,BR,1547305200,70,-9.87,-56.08,84.2,4.7
442,Sao Miguel do Araguaia,8,BR,1547308645,74,-13.28,-50.16,88.95,6.85
443,Bathsheba,40,BB,1547305200,61,13.22,-59.52,82.4,16.11
444,Vestmannaeyjar,90,IS,1547305200,100,63.44,-20.27,35.6,5.82
445,Dingle,12,PH,1547308646,88,11.0,122.67,75.63,11.99
446,Bayangol,0,MN,1547308647,36,48.91,106.09,-12.62,3.71
447,Itoman,75,JP,1547307000,64,26.12,127.67,69.8,14.99
448,Teya,5,MX,1547304240,64,21.05,-89.07,71.6,12.75
449,Komsomolskiy,64,RU,1547308648,77,67.55,63.78,1.65,18.92
450,Tayport,40,GB,1547306400,81,56.45,-2.88,50.0,9.17
451,Kasongo-Lunda,48,CD,1547308648,74,-6.48,16.82,81.71,3.15
452,Alekseyevka,90,RU,1547307000,95,53.25,50.49,32.0,15.66
453,Mitsamiouli,40,KM,1547305200,88,-11.38,43.28,82.4,12.75
454,Port Hedland,40,AU,1547307000,94,-20.31,118.58,80.6,6.93
455,Istres,0,FR,1547307000,70,43.51,4.99,50.0,25.28
456,Meulaboh,24,ID,1547308507,100,4.14,96.13,77.84,5.73
457,Batsfjord,90,NO,1547306400,100,70.63,29.72,32.0,25.28
458,Washington DC.,75,US,1547307600,55,38.9,-77.04,35.06,4.72
459,Comodoro Rivadavia,20,AR,1547305200,24,-45.87,-67.48,66.2,12.75
460,Emiliano Zapata,0,MX,1547308655,80,24.06,-106.92,57.86,2.59
461,Kabalo,20,CD,1547308655,100,-6.05,26.92,73.56,5.39
462,Morehead,90,US,1547307600,80,38.18,-83.43,32.0,5.82
463,Baoying,36,CN,1547308656,87,33.24,119.31,31.94,3.15
464,Noumea,90,NC,1547307000,88,-22.28,166.46,75.2,4.7
465,Henderson,1,US,1547306100,74,36.04,-114.98,44.96,1.25
466,Cuauhtemoc,20,MX,1547308460,84,28.72,-111.63,44.76,3.38
467,Misratah,92,LY,1547308658,100,32.38,15.09,52.32,28.1
468,Linxia,0,CN,1547308658,61,35.6,103.21,3.41,2.15
469,Filingue,8,NE,1547308659,17,14.35,3.32,92.69,9.19
470,Valleyview,48,CA,1547308659,63,55.07,-117.28,14.21,3.71
471,Ponta Delgada,75,PT,1547305200,77,37.73,-25.67,62.6,14.99
472,Nokaneng,0,BW,1547308660,57,-19.66,22.19,93.63,4.61
473,Davila,20,PH,1547305200,94,18.47,120.58,73.4,2.24
474,Abu Samrah,0,SY,1547308660,88,35.3,37.18,45.39,7.29
475,Aleysk,68,RU,1547308660,73,52.5,82.77,0.75,3.49
476,Uruzgan,0,AF,1547308661,55,32.93,66.63,0.26,1.92
477,Batticaloa,92,LK,1547308532,100,7.71,81.69,73.83,1.92
478,Buala,56,SB,1547308662,96,-8.15,159.59,81.08,6.4
479,Kuala Terengganu,75,MY,1547305200,88,5.33,103.14,80.6,4.7
480,Sechura,0,PE,1547308662,70,-5.56,-80.82,78.69,9.19
481,Paramaribo,40,SR,1547305200,78,5.82,-55.18,82.4,11.41
482,Pesqueira,56,BR,1547308663,82,-8.36,-36.7,81.26,8.97
483,Nome,90,US,1547307300,85,30.04,-94.42,64.04,8.05
484,Batagay,36,RU,1547308664,0,67.65,134.64,-45.65,2.82
485,Millinocket,1,US,1547304960,61,45.66,-68.71,3.02,11.41
486,Burgos,90,ES,1547307000,86,42.34,-3.7,41.0,10.29
487,Vredendal,92,ZA,1547308665,89,-31.68,18.49,67.13,6.73
488,Barentu,0,ER,1547308665,23,15.11,37.59,86.07,1.92
489,Bushehr,0,IR,1547305200,62,28.97,50.84,57.2,6.93
490,Vuktyl,80,RU,1547308666,72,63.86,57.31,15.56,10.54
491,Severodvinsk,90,RU,1547307000,92,64.56,39.82,24.8,6.71
492,Ferme-Neuve,0,CA,1547308666,71,46.7,-75.45,-2.04,4.16
493,Baherden,32,TM,1547308667,87,38.44,57.43,39.18,6.73
494,San Jose,0,PH,1547308668,93,15.79,120.99,65.24,2.37
495,Qostanay,90,KZ,1547307000,85,53.17,63.58,14.0,20.13
496,Nantucket,5,US,1547307300,29,41.28,-70.1,23.0,13.87
497,Yarim,0,YE,1547308670,17,14.3,44.38,63.21,5.39
498,Camacha,40,PT,1547305200,68,33.08,-16.33,64.4,17.22
499,Valdez,1,US,1547305860,85,61.13,-146.35,12.2,8.05
500,Marzuq,0,YE,1547308671,25,14.4,46.47,65.01,3.38
501,Rocky Mountain House,36,CA,1547308493,62,52.38,-114.92,20.91,2.93
502,Ataco,44,CO,1547308671,93,3.59,-75.38,64.43,1.59
503,Kavieng,56,PG,1547308672,100,-2.57,150.8,84.36,12.55
504,Athabasca,8,CA,1547308580,63,54.72,-113.29,2.46,3.15
505,Tilichiki,20,RU,1547308673,70,60.47,166.1,-10.23,3.38
506,Kaoma,0,ZM,1547308673,76,-14.8,24.8,83.19,5.17
507,Saint-Pierre,90,FR,1547305200,93,48.95,4.24,44.6,18.34
508,Olgod,92,DK,1547307180,93,55.81,8.63,42.8,19.46
509,Molteno,0,ZA,1547308675,13,-31.4,26.36,82.16,13.0
510,Opuwo,0,NA,1547308675,13,-18.06,13.84,92.1,13.56
511,Leninskoye,48,RU,1547307000,76,54.82,82.85,-7.61,2.24
512,Tsiroanomandidy,76,MG,1547308676,94,-18.77,46.05,71.22,3.94
513,Karachi,0,PK,1547306700,49,24.87,67.03,71.6,3.6
514,Farmington,90,US,1547306700,88,36.73,-108.21,30.02,2.71
515,High Level,75,CA,1547305200,92,58.52,-117.13,5.0,2.24
516,Zhangye,20,CN,1547308678,64,38.94,100.46,6.87,3.15
517,Puerto Escondido,5,MX,1547304300,73,15.86,-97.07,75.2,3.71
518,Bilma,32,NE,1547308679,20,18.69,12.92,80.4,8.86
519,Caravelas,0,BR,1547308680,100,-17.73,-39.27,80.67,8.75
520,Mukhen,0,RU,1547308684,62,48.19,136.14,-3.17,2.37
521,Vallentuna,0,SE,1547306400,79,59.53,18.08,28.4,4.7
522,Baculin,64,PH,1547308684,98,7.45,126.58,75.99,11.43
523,Yulara,0,AU,1547305200,15,-25.24,130.99,93.2,8.05
524,Beyneu,68,KZ,1547308685,94,45.32,55.19,33.29,16.8
525,Acapulco,5,MX,1547304420,73,16.86,-99.88,77.0,5.82
526,Kalabo,64,ZM,1547308685,39,-15.0,22.67,92.19,4.61
527,Luderitz,20,NA,1547308686,82,-26.65,15.16,65.91,6.62
528,Lahij,76,YE,1547308686,73,13.06,44.88,74.28,6.17
529,Jinchang,56,CN,1547308686,66,38.52,102.19,5.79,2.48
530,Pouembout,56,NC,1547308687,95,-21.12,164.9,72.84,2.37
531,Svatove,76,UA,1547308689,90,49.42,38.16,15.24,10.42
532,Bhuj,0,IN,1547308689,57,23.25,69.67,67.13,8.41
533,Buta,56,CD,1547308690,29,2.79,24.73,94.62,2.37
534,Malinovskiy,68,RU,1547308690,83,54.15,34.53,13.89,11.43
535,Puerto del Rosario,20,ES,1547307000,68,28.5,-13.86,66.2,6.93
536,Robinson,90,US,1547307300,99,39.01,-87.74,33.08,8.05
537,Talakan,12,RU,1547308692,58,50.29,130.28,-12.48,2.82
538,Gat,0,SN,1547307000,7,14.69,-16.54,95.0,3.36
539,Llanes,44,ES,1547308696,86,43.42,-4.75,40.31,2.26
540,Romitan,0,UZ,1547307000,93,39.93,64.38,35.6,4.7
541,Savannah Bight,20,HN,1547305200,73,16.45,-85.85,77.0,2.93
542,Bulgan,0,MN,1547308697,53,48.81,103.53,-12.98,2.71
543,Springbok,0,ZA,1547308718,33,-29.67,17.88,79.68,13.22
544,Santa Cecilia,75,CO,1547305200,88,5.35,-76.12,77.0,6.93
545,Necochea,0,AR,1547308719,71,-38.55,-58.74,77.66,16.8
546,Dauphin,90,CA,1547305200,92,51.15,-100.04,8.6,3.36
547,Istiaia,75,GR,1547306400,86,38.96,23.15,37.4,6.93
548,Erechim,40,BR,1547305200,66,-27.64,-52.27,84.2,6.93
549,Ozernovskiy,80,RU,1547308720,88,51.5,156.52,28.16,9.64
550,Isiro,8,CD,1547308720,26,2.77,27.62,92.51,2.82
551,Butembo,32,CD,1547308721,72,0.12,29.29,75.54,0.58
552,Novomikhaylovskiy,92,RU,1547308721,98,44.26,38.86,39.45,5.73
553,Texarkana,90,US,1547304780,100,33.44,-94.04,46.04,8.05
554,Mashhad,20,IR,1547307000,51,36.3,59.61,37.4,2.48
555,Kiunga,80,PG,1547308722,97,-6.12,141.3,74.24,1.59
556,Dubti,0,ET,1547308722,21,11.74,41.09,82.56,7.4
557,Banyo,8,CM,1547308723,18,6.75,11.81,91.02,9.86
558,Hun,75,BE,1547306400,93,50.34,4.87,46.4,11.41
559,Barrhead,1,CA,1547305200,92,54.12,-114.4,8.6,2.93
560,Khislavichi,80,RU,1547308723,90,54.19,32.16,18.71,10.42
561,Rocha,24,UY,1547308507,67,-34.48,-54.34,74.96,8.75
